{
  "type": "FeatureCollection",
  "name": "green_fund_fallback_islands",
  "features": [
    {
      "type": "Feature",
      "properties": {
        "join_key": "GDh.Thinadhoo",
        "atoll": "GDh",
        "island": "Thinadhoo",
        "name": "Thinadhoo",
        "fallback_coordinates": false,
        "source": "onemap.mv (Maldives Geomatics Department) island centroid"
      },
      "geometry": {
        "type": "Point",
        "coordinates": [
          72.99738770781907,
          0.5324854972456382
        ]
      }
    },
    {
      "type": "Feature",
      "properties": {
        "join_key": "Sh.Milandhoo",
        "atoll": "Sh",
        "island": "Milandhoo",
        "name": "Milandhoo",
        "fallback_coordinates": false,
        "source": "onemap.mv (Maldives Geomatics Department) island centroid"
      },
      "geometry": {
        "type": "Point",
        "coordinates": [
          73.2445371433911,
          6.286047905276211
        ]
      }
    },
    {
      "type": "Feature",
      "properties": {
        "join_key": "ADh.Omadhoo",
        "atoll": "ADh",
        "island": "Omadhoo",
        "name": "Omadhoo",
        "fallback_coordinates": false,
        "source": "onemap.mv (Maldives Geomatics Department) island centroid"
      },
      "geometry": {
        "type": "Point",
        "coordinates": [
          72.96248688811914,
          3.7915851044255118
        ]
      }
    },
    {
      "type": "Feature",
      "properties": {
        "join_key": "M.Dhiggaru",
        "atoll": "M",
        "island": "Dhiggaru",
        "name": "Dhiggaru",
        "fallback_coordinates": false,
        "source": "onemap.mv (Maldives Geomatics Department) island centroid"
      },
      "geometry": {
        "type": "Point",
        "coordinates": [
          73.56530744266531,
          3.1120037651522905
        ]
      }
    },
    {
      "type": "Feature",
      "properties": {
        "join_key": "Th.Vandhoo",
        "atoll": "Th",
        "island": "Vandhoo",
        "name": "Vandhoo",
        "fallback_coordinates": false,
        "source": "onemap.mv (Maldives Geomatics Department) island centroid"
      },
      "geometry": {
        "type": "Point",
        "coordinates": [
          72.9419281596913,
          2.291681205530818
        ]
      }
    },
    {
      "type": "Feature",
      "properties": {
        "join_key": "S.Meedhoo",
        "atoll": "S",
        "island": "Meedhoo",
        "name": "Meedhoo",
        "fallback_coordinates": false,
        "source": "onemap.mv (Maldives Geomatics Department) island centroid - fuzzy matched to \"Feydhoo\""
      },
      "geometry": {
        "type": "Point",
        "coordinates": [
          73.13441870577353,
          -0.6831442703090044
        ]
      }
    },
    {
      "type": "Feature",
      "properties": {
        "join_key": "HA.Uligamu",
        "atoll": "HA",
        "island": "Uligamu",
        "name": "Uligamu",
        "fallback_coordinates": false,
        "source": "onemap.mv (Maldives Geomatics Department) island centroid - fuzzy matched to \"Uligan\""
      },
      "geometry": {
        "type": "Point",
        "coordinates": [
          72.92746810749038,
          7.081877659184941
        ]
      }
    },
    {
      "type": "Feature",
      "properties": {
        "join_key": "Lh.Olhuvelifushi",
        "atoll": "Lh",
        "island": "Olhuvelifushi",
        "name": "Olhuvelifushi",
        "fallback_coordinates": false,
        "source": "onemap.mv (Maldives Geomatics Department) island centroid"
      },
      "geometry": {
        "type": "Point",
        "coordinates": [
          73.60676245522389,
          5.278509041607569
        ]
      }
    },
    {
      "type": "Feature",
      "properties": {
        "join_key": "M.Kolhufushi",
        "atoll": "M",
        "island": "Kolhufushi",
        "name": "Kolhufushi",
        "fallback_coordinates": false,
        "source": "onemap.mv (Maldives Geomatics Department) island centroid"
      },
      "geometry": {
        "type": "Point",
        "coordinates": [
          73.42454812866485,
          2.7768812363800457
        ]
      }
    },
    {
      "type": "Feature",
      "properties": {
        "join_key": "M.Mulah",
        "atoll": "M",
        "island": "Mulah",
        "name": "Mulah",
        "fallback_coordinates": false,
        "source": "onemap.mv (Maldives Geomatics Department) island centroid"
      },
      "geometry": {
        "type": "Point",
        "coordinates": [
          73.58462399913721,
          2.946653285331076
        ]
      }
    },
    {
      "type": "Feature",
      "properties": {
        "join_key": "Th.Buruni",
        "atoll": "Th",
        "island": "Buruni",
        "name": "Buruni",
        "fallback_coordinates": false,
        "source": "onemap.mv (Maldives Geomatics Department) island centroid"
      },
      "geometry": {
        "type": "Point",
        "coordinates": [
          73.10702852292077,
          2.5589707521244973
        ]
      }
    },
    {
      "type": "Feature",
      "properties": {
        "join_key": "Gn.Fuvahmulah",
        "atoll": "Gn",
        "island": "Fuvahmulah",
        "name": "Fuvahmulah",
        "fallback_coordinates": false,
        "source": "onemap.mv (Maldives Geomatics Department) island centroid"
      },
      "geometry": {
        "type": "Point",
        "coordinates": [
          73.42474410647806,
          -0.295699387459558
        ]
      }
    },
    {
      "type": "Feature",
      "properties": {
        "join_key": "Dh.Maaenboodhu",
        "atoll": "Dh",
        "island": "Maaenboodhu",
        "name": "Maaenboodhu",
        "fallback_coordinates": false,
        "source": "onemap.mv (Maldives Geomatics Department) island centroid - fuzzy matched to \"Maaen'boodhoo\""
      },
      "geometry": {
        "type": "Point",
        "coordinates": [
          72.96353939270448,
          2.6957648937681453
        ]
      }
    },
    {
      "type": "Feature",
      "properties": {
        "join_key": "Th.Veymandoo",
        "atoll": "Th",
        "island": "Veymandoo",
        "name": "Veymandoo",
        "fallback_coordinates": false,
        "source": "onemap.mv (Maldives Geomatics Department) island centroid"
      },
      "geometry": {
        "type": "Point",
        "coordinates": [
          73.0950994678468,
          2.1869193070265096
        ]
      }
    },
    {
      "type": "Feature",
      "properties": {
        "join_key": "Lh.Kurendhoo",
        "atoll": "Lh",
        "island": "Kurendhoo",
        "name": "Kurendhoo",
        "fallback_coordinates": false,
        "source": "onemap.mv (Maldives Geomatics Department) island centroid"
      },
      "geometry": {
        "type": "Point",
        "coordinates": [
          73.4636779367919,
          5.333846264093303
        ]
      }
    },
    {
      "type": "Feature",
      "properties": {
        "join_key": "AA.Rasdhoo",
        "atoll": "AA",
        "island": "Rasdhoo",
        "name": "Rasdhoo",
        "fallback_coordinates": false,
        "source": "onemap.mv (Maldives Geomatics Department) island centroid"
      },
      "geometry": {
        "type": "Point",
        "coordinates": [
          72.99185040942913,
          4.26306486777495
        ]
      }
    },
    {
      "type": "Feature",
      "properties": {
        "join_key": "Sh.Komandoo",
        "atoll": "Sh",
        "island": "Komandoo",
        "name": "Komandoo",
        "fallback_coordinates": false,
        "source": "onemap.mv (Maldives Geomatics Department) island centroid"
      },
      "geometry": {
        "type": "Point",
        "coordinates": [
          73.05430163324063,
          6.054145835211709
        ]
      }
    },
    {
      "type": "Feature",
      "properties": {
        "join_key": "N.Henbadhoo",
        "atoll": "N",
        "island": "Henbadhoo",
        "name": "Henbadhoo",
        "fallback_coordinates": false,
        "source": "onemap.mv (Maldives Geomatics Department) island centroid"
      },
      "geometry": {
        "type": "Point",
        "coordinates": [
          73.39298411191974,
          5.967554580166399
        ]
      }
    },
    {
      "type": "Feature",
      "properties": {
        "join_key": "N.Fohdhoo",
        "atoll": "N",
        "island": "Fohdhoo",
        "name": "Fohdhoo",
        "fallback_coordinates": false,
        "source": "onemap.mv (Maldives Geomatics Department) island centroid - fuzzy matched to \"Fodhdhoo\""
      },
      "geometry": {
        "type": "Point",
        "coordinates": [
          73.21599524376627,
          5.743755785452965
        ]
      }
    },
    {
      "type": "Feature",
      "properties": {
        "join_key": "V.Fulidhoo",
        "atoll": "V",
        "island": "Fulidhoo",
        "name": "Fulidhoo",
        "fallback_coordinates": false,
        "source": "onemap.mv (Maldives Geomatics Department) island centroid"
      },
      "geometry": {
        "type": "Point",
        "coordinates": [
          73.4156837763995,
          3.6805288026380762
        ]
      }
    },
    {
      "type": "Feature",
      "properties": {
        "join_key": "V.Felidhoo",
        "atoll": "V",
        "island": "Felidhoo",
        "name": "Felidhoo",
        "fallback_coordinates": false,
        "source": "onemap.mv (Maldives Geomatics Department) island centroid"
      },
      "geometry": {
        "type": "Point",
        "coordinates": [
          73.54725019922321,
          3.4719344012754587
        ]
      }
    },
    {
      "type": "Feature",
      "properties": {
        "join_key": "Th.Dhiyamigili",
        "atoll": "Th",
        "island": "Dhiyamigili",
        "name": "Dhiyamigili",
        "fallback_coordinates": false,
        "source": "onemap.mv (Maldives Geomatics Department) island centroid"
      },
      "geometry": {
        "type": "Point",
        "coordinates": [
          73.33684272197377,
          2.3396807454907984
        ]
      }
    },
    {
      "type": "Feature",
      "properties": {
        "join_key": "Th.Thimarafushi",
        "atoll": "Th",
        "island": "Thimarafushi",
        "name": "Thimarafushi",
        "fallback_coordinates": false,
        "source": "onemap.mv (Maldives Geomatics Department) island centroid"
      },
      "geometry": {
        "type": "Point",
        "coordinates": [
          73.14825317174667,
          2.208911097132241
        ]
      }
    },
    {
      "type": "Feature",
      "properties": {
        "join_key": "K.Himmafushi",
        "atoll": "K",
        "island": "Himmafushi",
        "name": "Himmafushi",
        "fallback_coordinates": false,
        "source": "onemap.mv (Maldives Geomatics Department) island centroid - fuzzy matched to \"Hinmafushi\""
      },
      "geometry": {
        "type": "Point",
        "coordinates": [
          73.57111820782387,
          4.308019858600942
        ]
      }
    },
    {
      "type": "Feature",
      "properties": {
        "join_key": "S.Hithadhoo",
        "atoll": "S",
        "island": "Hithadhoo",
        "name": "Hithadhoo",
        "fallback_coordinates": false,
        "source": "onemap.mv (Maldives Geomatics Department) island centroid"
      },
      "geometry": {
        "type": "Point",
        "coordinates": [
          73.09000583731878,
          -0.6085105497952487
        ]
      }
    },
    {
      "type": "Feature",
      "properties": {
        "join_key": "S.Hulhudhoo",
        "atoll": "S",
        "island": "Hulhudhoo",
        "name": "Hulhudhoo",
        "fallback_coordinates": false,
        "source": "onemap.mv (Maldives Geomatics Department) island centroid - matched to \"Addu Hulhudhoo\""
      },
      "geometry": {
        "type": "Point",
        "coordinates": [
          73.22725449326904,
          -0.5956433694049247
        ]
      }
    },
    {
      "type": "Feature",
      "properties": {
        "join_key": "S.Maradhoo",
        "atoll": "S",
        "island": "Maradhoo",
        "name": "Maradhoo",
        "fallback_coordinates": false,
        "source": "onemap.mv (Maldives Geomatics Department) island centroid"
      },
      "geometry": {
        "type": "Point",
        "coordinates": [
          73.11883842950513,
          -0.6655484678301807
        ]
      }
    },
    {
      "type": "Feature",
      "properties": {
        "join_key": "R.Vandhoo",
        "atoll": "R",
        "island": "Vandhoo",
        "name": "Vandhoo",
        "fallback_coordinates": false,
        "source": "onemap.mv (Maldives Geomatics Department) island centroid"
      },
      "geometry": {
        "type": "Point",
        "coordinates": [
          73.04205660564433,
          5.531696750538363
        ]
      }
    },
    {
      "type": "Feature",
      "properties": {
        "join_key": "K.Thulusdhoo",
        "atoll": "K",
        "island": "Thulusdhoo",
        "name": "Thulusdhoo",
        "fallback_coordinates": false,
        "source": "onemap.mv (Maldives Geomatics Department) island centroid"
      },
      "geometry": {
        "type": "Point",
        "coordinates": [
          73.64804474136737,
          4.372974423053147
        ]
      }
    },
    {
      "type": "Feature",
      "properties": {
        "join_key": "Th.Guraidhoo",
        "atoll": "Th",
        "island": "Guraidhoo",
        "name": "Guraidhoo",
        "fallback_coordinates": false,
        "source": "onemap.mv (Maldives Geomatics Department) island centroid"
      },
      "geometry": {
        "type": "Point",
        "coordinates": [
          73.31756013527634,
          2.322844081283993
        ]
      }
    },
    {
      "type": "Feature",
      "properties": {
        "join_key": "K.Thilafushi",
        "atoll": "K",
        "island": "Thilafushi",
        "name": "Thilafushi",
        "fallback_coordinates": false,
        "source": "onemap.mv (Maldives Geomatics Department) island centroid"
      },
      "geometry": {
        "type": "Point",
        "coordinates": [
          73.44155220882976,
          4.182472627646702
        ]
      }
    },
    {
      "type": "Feature",
      "properties": {
        "join_key": "N.Maafaru",
        "atoll": "N",
        "island": "Maafaru",
        "name": "Maafaru",
        "fallback_coordinates": false,
        "source": "onemap.mv (Maldives Geomatics Department) island centroid"
      },
      "geometry": {
        "type": "Point",
        "coordinates": [
          73.47433052558698,
          5.825211311768696
        ]
      }
    },
    {
      "type": "Feature",
      "properties": {
        "join_key": "F.Magoodhoo",
        "atoll": "F",
        "island": "Magoodhoo",
        "name": "Magoodhoo",
        "fallback_coordinates": false,
        "source": "onemap.mv (Maldives Geomatics Department) island centroid"
      },
      "geometry": {
        "type": "Point",
        "coordinates": [
          72.96388319970949,
          3.078898767757891
        ]
      }
    },
    {
      "type": "Feature",
      "properties": {
        "join_key": "HA.Hoarafushi",
        "atoll": "HA",
        "island": "Hoarafushi",
        "name": "Hoarafushi",
        "fallback_coordinates": false,
        "source": "onemap.mv (Maldives Geomatics Department) island centroid"
      },
      "geometry": {
        "type": "Point",
        "coordinates": [
          72.89492185185894,
          6.983054934812514
        ]
      }
    },
    {
      "type": "Feature",
      "properties": {
        "join_key": "HA.Kelaa",
        "atoll": "HA",
        "island": "Kelaa",
        "name": "Kelaa",
        "fallback_coordinates": false,
        "source": "onemap.mv (Maldives Geomatics Department) island centroid"
      },
      "geometry": {
        "type": "Point",
        "coordinates": [
          73.21615341514945,
          6.954771144301942
        ]
      }
    },
    {
      "type": "Feature",
      "properties": {
        "join_key": "S.Feydhoo",
        "atoll": "S",
        "island": "Feydhoo",
        "name": "Feydhoo",
        "fallback_coordinates": false,
        "source": "onemap.mv (Maldives Geomatics Department) island centroid"
      },
      "geometry": {
        "type": "Point",
        "coordinates": [
          73.13441870577353,
          -0.6831442703090044
        ]
      }
    },
    {
      "type": "Feature",
      "properties": {
        "join_key": "B.Kamadhoo",
        "atoll": "B",
        "island": "Kamadhoo",
        "name": "Kamadhoo",
        "fallback_coordinates": false,
        "source": "onemap.mv (Maldives Geomatics Department) island centroid"
      },
      "geometry": {
        "type": "Point",
        "coordinates": [
          73.1369119500072,
          5.281931008369468
        ]
      }
    },
    {
      "type": "Feature",
      "properties": {
        "join_key": "N.Holhudhoo",
        "atoll": "N",
        "island": "Holhudhoo",
        "name": "Holhudhoo",
        "fallback_coordinates": false,
        "source": "onemap.mv (Maldives Geomatics Department) island centroid"
      },
      "geometry": {
        "type": "Point",
        "coordinates": [
          73.25519980569861,
          5.752743936480044
        ]
      }
    },
    {
      "type": "Feature",
      "properties": {
        "join_key": "HDh.Naivaadhoo",
        "atoll": "HDh",
        "island": "Naivaadhoo",
        "name": "Naivaadhoo",
        "fallback_coordinates": false,
        "source": "onemap.mv (Maldives Geomatics Department) island centroid"
      },
      "geometry": {
        "type": "Point",
        "coordinates": [
          72.93499160415041,
          6.746860996137769
        ]
      }
    },
    {
      "type": "Feature",
      "properties": {
        "join_key": "ADh.Hanyaameedhoo",
        "atoll": "ADh",
        "island": "Hanyaameedhoo",
        "name": "Hanyaameedhoo",
        "fallback_coordinates": false,
        "source": "onemap.mv (Maldives Geomatics Department) island centroid - fuzzy matched to \"Hangnaameedhoo\""
      },
      "geometry": {
        "type": "Point",
        "coordinates": [
          72.95526441886194,
          3.8492397437413093
        ]
      }
    },
    {
      "type": "Feature",
      "properties": {
        "join_key": "S.Hulhumeedhoo",
        "atoll": "S",
        "island": "Hulhumeedhoo",
        "name": "Hulhumeedhoo",
        "fallback_coordinates": true,
        "source": "Generated fallback coordinates. Replace with islands repo GeoJSON for accurate geometry."
      },
      "geometry": {
        "type": "Point",
        "coordinates": [
          73.01628,
          -0.6974
        ]
      }
    },
    {
      "type": "Feature",
      "properties": {
        "join_key": "L.Gan",
        "atoll": "L",
        "island": "Gan",
        "name": "Gan",
        "fallback_coordinates": false,
        "source": "onemap.mv (Maldives Geomatics Department) island centroid"
      },
      "geometry": {
        "type": "Point",
        "coordinates": [
          73.54216735087788,
          1.918391108412788
        ]
      }
    },
    {
      "type": "Feature",
      "properties": {
        "join_key": "HDh.Finey",
        "atoll": "HDh",
        "island": "Finey",
        "name": "Finey",
        "fallback_coordinates": false,
        "source": "onemap.mv (Maldives Geomatics Department) island centroid"
      },
      "geometry": {
        "type": "Point",
        "coordinates": [
          73.05328325128635,
          6.745904097403406
        ]
      }
    },
    {
      "type": "Feature",
      "properties": {
        "join_key": "ADh.Fenfushi",
        "atoll": "ADh",
        "island": "Fenfushi",
        "name": "Fenfushi",
        "fallback_coordinates": false,
        "source": "onemap.mv (Maldives Geomatics Department) island centroid"
      },
      "geometry": {
        "type": "Point",
        "coordinates": [
          72.78372883470139,
          3.4894058271988526
        ]
      }
    },
    {
      "type": "Feature",
      "properties": {
        "join_key": "AA.Ukulhas",
        "atoll": "AA",
        "island": "Ukulhas",
        "name": "Ukulhas",
        "fallback_coordinates": false,
        "source": "onemap.mv (Maldives Geomatics Department) island centroid"
      },
      "geometry": {
        "type": "Point",
        "coordinates": [
          72.8642546112272,
          4.2150588859615645
        ]
      }
    },
    {
      "type": "Feature",
      "properties": {
        "join_key": "K.Kaashidhoo",
        "atoll": "K",
        "island": "Kaashidhoo",
        "name": "Kaashidhoo",
        "fallback_coordinates": false,
        "source": "onemap.mv (Maldives Geomatics Department) island centroid"
      },
      "geometry": {
        "type": "Point",
        "coordinates": [
          73.46118958063921,
          4.955723957436136
        ]
      }
    },
    {
      "type": "Feature",
      "properties": {
        "join_key": "R.Maakurathu",
        "atoll": "R",
        "island": "Maakurathu",
        "name": "Maakurathu",
        "fallback_coordinates": false,
        "source": "onemap.mv (Maldives Geomatics Department) island centroid"
      },
      "geometry": {
        "type": "Point",
        "coordinates": [
          73.04402558960452,
          5.606248738540133
        ]
      }
    },
    {
      "type": "Feature",
      "properties": {
        "join_key": "L.Maavah",
        "atoll": "L",
        "island": "Maavah",
        "name": "Maavah",
        "fallback_coordinates": false,
        "source": "onemap.mv (Maldives Geomatics Department) island centroid"
      },
      "geometry": {
        "type": "Point",
        "coordinates": [
          73.24349496346761,
          1.8856492740585051
        ]
      }
    },
    {
      "type": "Feature",
      "properties": {
        "join_key": "HA.Utheemu",
        "atoll": "HA",
        "island": "Utheemu",
        "name": "Utheemu",
        "fallback_coordinates": false,
        "source": "onemap.mv (Maldives Geomatics Department) island centroid"
      },
      "geometry": {
        "type": "Point",
        "coordinates": [
          73.11270272382843,
          6.834831504793022
        ]
      }
    },
    {
      "type": "Feature",
      "properties": {
        "join_key": "R.Rasmaadhoo",
        "atoll": "R",
        "island": "Rasmaadhoo",
        "name": "Rasmaadhoo",
        "fallback_coordinates": false,
        "source": "onemap.mv (Maldives Geomatics Department) island centroid"
      },
      "geometry": {
        "type": "Point",
        "coordinates": [
          73.04386683468375,
          5.5630933042273085
        ]
      }
    },
    {
      "type": "Feature",
      "properties": {
        "join_key": "F.Feeali",
        "atoll": "F",
        "island": "Feeali",
        "name": "Feeali",
        "fallback_coordinates": false,
        "source": "onemap.mv (Maldives Geomatics Department) island centroid"
      },
      "geometry": {
        "type": "Point",
        "coordinates": [
          73.00198574029987,
          3.2699839084595403
        ]
      }
    },
    {
      "type": "Feature",
      "properties": {
        "join_key": "HA.Baarah",
        "atoll": "HA",
        "island": "Baarah",
        "name": "Baarah",
        "fallback_coordinates": false,
        "source": "onemap.mv (Maldives Geomatics Department) island centroid"
      },
      "geometry": {
        "type": "Point",
        "coordinates": [
          73.2090799347758,
          6.816402961570283
        ]
      }
    },
    {
      "type": "Feature",
      "properties": {
        "join_key": "F.Bileidhoo",
        "atoll": "F",
        "island": "Bileidhoo",
        "name": "Bileidhoo",
        "fallback_coordinates": false,
        "source": "onemap.mv (Maldives Geomatics Department) island centroid - fuzzy matched to \"Bileiydhoo\""
      },
      "geometry": {
        "type": "Point",
        "coordinates": [
          72.98412970579416,
          3.1183500031788616
        ]
      }
    },
    {
      "type": "Feature",
      "properties": {
        "join_key": "GDh.Madaveli",
        "atoll": "GDh",
        "island": "Madaveli",
        "name": "Madaveli",
        "fallback_coordinates": false,
        "source": "onemap.mv (Maldives Geomatics Department) island centroid"
      },
      "geometry": {
        "type": "Point",
        "coordinates": [
          72.99864735555983,
          0.4585908617479906
        ]
      }
    },
    {
      "type": "Feature",
      "properties": {
        "join_key": "AA.Mathiveri",
        "atoll": "AA",
        "island": "Mathiveri",
        "name": "Mathiveri",
        "fallback_coordinates": false,
        "source": "onemap.mv (Maldives Geomatics Department) island centroid"
      },
      "geometry": {
        "type": "Point",
        "coordinates": [
          72.74625528498709,
          4.191862559683546
        ]
      }
    },
    {
      "type": "Feature",
      "properties": {
        "join_key": "GA.Gemanafushi",
        "atoll": "GA",
        "island": "Gemanafushi",
        "name": "Gemanafushi",
        "fallback_coordinates": false,
        "source": "onemap.mv (Maldives Geomatics Department) island centroid"
      },
      "geometry": {
        "type": "Point",
        "coordinates": [
          73.5682905203221,
          0.4426628197489779
        ]
      }
    },
    {
      "type": "Feature",
      "properties": {
        "join_key": "R.Innamaadhoo",
        "atoll": "R",
        "island": "Innamaadhoo",
        "name": "Innamaadhoo",
        "fallback_coordinates": false,
        "source": "onemap.mv (Maldives Geomatics Department) island centroid"
      },
      "geometry": {
        "type": "Point",
        "coordinates": [
          73.0445361470325,
          5.549446924137601
        ]
      }
    },
    {
      "type": "Feature",
      "properties": {
        "join_key": "GA.Maamendhoo",
        "atoll": "GA",
        "island": "Maamendhoo",
        "name": "Maamendhoo",
        "fallback_coordinates": false,
        "source": "onemap.mv (Maldives Geomatics Department) island centroid"
      },
      "geometry": {
        "type": "Point",
        "coordinates": [
          73.43916687829426,
          0.714212730573965
        ]
      }
    },
    {
      "type": "Feature",
      "properties": {
        "join_key": "HA.Muraidhoo",
        "atoll": "HA",
        "island": "Muraidhoo",
        "name": "Muraidhoo",
        "fallback_coordinates": false,
        "source": "onemap.mv (Maldives Geomatics Department) island centroid"
      },
      "geometry": {
        "type": "Point",
        "coordinates": [
          73.1672733690519,
          6.837962357911014
        ]
      }
    },
    {
      "type": "Feature",
      "properties": {
        "join_key": "HA.Maarandhoo",
        "atoll": "HA",
        "island": "Maarandhoo",
        "name": "Maarandhoo",
        "fallback_coordinates": false,
        "source": "onemap.mv (Maldives Geomatics Department) island centroid"
      },
      "geometry": {
        "type": "Point",
        "coordinates": [
          72.98419803772593,
          6.852626977870527
        ]
      }
    },
    {
      "type": "Feature",
      "properties": {
        "join_key": "HDh.Kurinbi",
        "atoll": "HDh",
        "island": "Kurinbi",
        "name": "Kurinbi",
        "fallback_coordinates": false,
        "source": "onemap.mv (Maldives Geomatics Department) island centroid"
      },
      "geometry": {
        "type": "Point",
        "coordinates": [
          72.99668739456641,
          6.665574721604867
        ]
      }
    },
    {
      "type": "Feature",
      "properties": {
        "join_key": "Sh.Maungoodhoo",
        "atoll": "Sh",
        "island": "Maungoodhoo",
        "name": "Maungoodhoo",
        "fallback_coordinates": false,
        "source": "onemap.mv (Maldives Geomatics Department) island centroid - fuzzy matched to \"Maaun'goodhoo\""
      },
      "geometry": {
        "type": "Point",
        "coordinates": [
          73.28383788367341,
          6.036740876122848
        ]
      }
    },
    {
      "type": "Feature",
      "properties": {
        "join_key": "Sh.Maroshi",
        "atoll": "Sh",
        "island": "Maroshi",
        "name": "Maroshi",
        "fallback_coordinates": false,
        "source": "onemap.mv (Maldives Geomatics Department) island centroid"
      },
      "geometry": {
        "type": "Point",
        "coordinates": [
          73.06125858258444,
          6.209576055720097
        ]
      }
    },
    {
      "type": "Feature",
      "properties": {
        "join_key": "N.Lhohi",
        "atoll": "N",
        "island": "Lhohi",
        "name": "Lhohi",
        "fallback_coordinates": false,
        "source": "onemap.mv (Maldives Geomatics Department) island centroid"
      },
      "geometry": {
        "type": "Point",
        "coordinates": [
          73.37767344345949,
          5.816177763547523
        ]
      }
    },
    {
      "type": "Feature",
      "properties": {
        "join_key": "N.Foddhoo",
        "atoll": "N",
        "island": "Foddhoo",
        "name": "Foddhoo",
        "fallback_coordinates": false,
        "source": "onemap.mv (Maldives Geomatics Department) island centroid - fuzzy matched to \"Fodhdhoo\""
      },
      "geometry": {
        "type": "Point",
        "coordinates": [
          73.21599524376627,
          5.743755785452965
        ]
      }
    },
    {
      "type": "Feature",
      "properties": {
        "join_key": "N.Kudafaree",
        "atoll": "N",
        "island": "Kudafaree",
        "name": "Kudafaree",
        "fallback_coordinates": false,
        "source": "onemap.mv (Maldives Geomatics Department) island centroid - fuzzy matched to \"Kudafari\""
      },
      "geometry": {
        "type": "Point",
        "coordinates": [
          73.40020584367558,
          5.882890834255479
        ]
      }
    },
    {
      "type": "Feature",
      "properties": {
        "join_key": "N.Maalhendhoo",
        "atoll": "N",
        "island": "Maalhendhoo",
        "name": "Maalhendhoo",
        "fallback_coordinates": false,
        "source": "onemap.mv (Maldives Geomatics Department) island centroid"
      },
      "geometry": {
        "type": "Point",
        "coordinates": [
          73.45611600120363,
          5.902201358069342
        ]
      }
    },
    {
      "type": "Feature",
      "properties": {
        "join_key": "R.Vaadhoo",
        "atoll": "R",
        "island": "Vaadhoo",
        "name": "Vaadhoo",
        "fallback_coordinates": false,
        "source": "onemap.mv (Maldives Geomatics Department) island centroid"
      },
      "geometry": {
        "type": "Point",
        "coordinates": [
          72.9914456439952,
          5.8567141387426025
        ]
      }
    },
    {
      "type": "Feature",
      "properties": {
        "join_key": "R.Rasgetheemu",
        "atoll": "R",
        "island": "Rasgetheemu",
        "name": "Rasgetheemu",
        "fallback_coordinates": false,
        "source": "onemap.mv (Maldives Geomatics Department) island centroid"
      },
      "geometry": {
        "type": "Point",
        "coordinates": [
          73.00295505148424,
          5.807683690377833
        ]
      }
    },
    {
      "type": "Feature",
      "properties": {
        "join_key": "R.Inguraidhoo",
        "atoll": "R",
        "island": "Inguraidhoo",
        "name": "Inguraidhoo",
        "fallback_coordinates": false,
        "source": "onemap.mv (Maldives Geomatics Department) island centroid"
      },
      "geometry": {
        "type": "Point",
        "coordinates": [
          73.03680036440451,
          5.47706456352682
        ]
      }
    },
    {
      "type": "Feature",
      "properties": {
        "join_key": "B.Maalhos",
        "atoll": "B",
        "island": "Maalhos",
        "name": "Maalhos",
        "fallback_coordinates": false,
        "source": "onemap.mv (Maldives Geomatics Department) island centroid"
      },
      "geometry": {
        "type": "Point",
        "coordinates": [
          73.10788671527838,
          5.1346116242463475
        ]
      }
    },
    {
      "type": "Feature",
      "properties": {
        "join_key": "B.Hithaadhoo",
        "atoll": "B",
        "island": "Hithaadhoo",
        "name": "Hithaadhoo",
        "fallback_coordinates": false,
        "source": "onemap.mv (Maldives Geomatics Department) island centroid"
      },
      "geometry": {
        "type": "Point",
        "coordinates": [
          72.92297446200422,
          5.007196922714497
        ]
      }
    },
    {
      "type": "Feature",
      "properties": {
        "join_key": "ADh.Dhihdhoo",
        "atoll": "ADh",
        "island": "Dhihdhoo",
        "name": "Dhihdhoo",
        "fallback_coordinates": false,
        "source": "onemap.mv (Maldives Geomatics Department) island centroid - fuzzy matched to \"Dhidhdhoo\""
      },
      "geometry": {
        "type": "Point",
        "coordinates": [
          72.87785188621005,
          3.4841299823526612
        ]
      }
    },
    {
      "type": "Feature",
      "properties": {
        "join_key": "V.Keyodhoo",
        "atoll": "V",
        "island": "Keyodhoo",
        "name": "Keyodhoo",
        "fallback_coordinates": false,
        "source": "onemap.mv (Maldives Geomatics Department) island centroid"
      },
      "geometry": {
        "type": "Point",
        "coordinates": [
          73.54998841818832,
          3.4621087592149062
        ]
      }
    },
    {
      "type": "Feature",
      "properties": {
        "join_key": "Th.Gaadhifushi",
        "atoll": "Th",
        "island": "Gaadhifushi",
        "name": "Gaadhifushi",
        "fallback_coordinates": false,
        "source": "onemap.mv (Maldives Geomatics Department) island centroid - fuzzy matched to \"Gaadhiffushi\""
      },
      "geometry": {
        "type": "Point",
        "coordinates": [
          73.21276486943404,
          2.25252677179583
        ]
      }
    },
    {
      "type": "Feature",
      "properties": {
        "join_key": "Th.Thakandhoo",
        "atoll": "Th",
        "island": "Thakandhoo",
        "name": "Thakandhoo",
        "fallback_coordinates": true,
        "source": "Generated fallback coordinates. Replace with islands repo GeoJSON for accurate geometry."
      },
      "geometry": {
        "type": "Point",
        "coordinates": [
          73.16288,
          2.1862
        ]
      }
    },
    {
      "type": "Feature",
      "properties": {
        "join_key": "GA.Nilandhoo",
        "atoll": "GA",
        "island": "Nilandhoo",
        "name": "Nilandhoo",
        "fallback_coordinates": false,
        "source": "onemap.mv (Maldives Geomatics Department) island centroid"
      },
      "geometry": {
        "type": "Point",
        "coordinates": [
          73.44646239937765,
          0.6362451175340502
        ]
      }
    },
    {
      "type": "Feature",
      "properties": {
        "join_key": "K.Gulhi",
        "atoll": "K",
        "island": "Gulhi",
        "name": "Gulhi",
        "fallback_coordinates": false,
        "source": "onemap.mv (Maldives Geomatics Department) island centroid"
      },
      "geometry": {
        "type": "Point",
        "coordinates": [
          73.50903896298952,
          3.990682954865636
        ]
      }
    },
    {
      "type": "Feature",
      "properties": {
        "join_key": "AA.Himandhoo",
        "atoll": "AA",
        "island": "Himandhoo",
        "name": "Himandhoo",
        "fallback_coordinates": false,
        "source": "onemap.mv (Maldives Geomatics Department) island centroid"
      },
      "geometry": {
        "type": "Point",
        "coordinates": [
          72.74404845372264,
          3.9209017323618345
        ]
      }
    },
    {
      "type": "Feature",
      "properties": {
        "join_key": "M.Naalafushi",
        "atoll": "M",
        "island": "Naalafushi",
        "name": "Naalafushi",
        "fallback_coordinates": false,
        "source": "onemap.mv (Maldives Geomatics Department) island centroid - fuzzy matched to \"Naalaafushi\""
      },
      "geometry": {
        "type": "Point",
        "coordinates": [
          73.57738502975577,
          2.895116540302552
        ]
      }
    },
    {
      "type": "Feature",
      "properties": {
        "join_key": "GDh.Nadellaa",
        "atoll": "GDh",
        "island": "Nadellaa",
        "name": "Nadellaa",
        "fallback_coordinates": false,
        "source": "onemap.mv (Maldives Geomatics Department) island centroid"
      },
      "geometry": {
        "type": "Point",
        "coordinates": [
          73.04064637281685,
          0.2933939141745947
        ]
      }
    },
    {
      "type": "Feature",
      "properties": {
        "join_key": "N.Landhoo",
        "atoll": "N",
        "island": "Landhoo",
        "name": "Landhoo",
        "fallback_coordinates": false,
        "source": "onemap.mv (Maldives Geomatics Department) island centroid"
      },
      "geometry": {
        "type": "Point",
        "coordinates": [
          73.46618113694805,
          5.881759701879539
        ]
      }
    },
    {
      "type": "Feature",
      "properties": {
        "join_key": "ADh.Hangnaameedhoo",
        "atoll": "ADh",
        "island": "Hangnaameedhoo",
        "name": "Hangnaameedhoo",
        "fallback_coordinates": false,
        "source": "onemap.mv (Maldives Geomatics Department) island centroid"
      },
      "geometry": {
        "type": "Point",
        "coordinates": [
          72.95526441886194,
          3.8492397437413093
        ]
      }
    },
    {
      "type": "Feature",
      "properties": {
        "join_key": "Sh.Feevah",
        "atoll": "Sh",
        "island": "Feevah",
        "name": "Feevah",
        "fallback_coordinates": false,
        "source": "onemap.mv (Maldives Geomatics Department) island centroid"
      },
      "geometry": {
        "type": "Point",
        "coordinates": [
          73.20924071804264,
          6.3489269130135275
        ]
      }
    },
    {
      "type": "Feature",
      "properties": {
        "join_key": "V.Rakeedhoo",
        "atoll": "V",
        "island": "Rakeedhoo",
        "name": "Rakeedhoo",
        "fallback_coordinates": false,
        "source": "onemap.mv (Maldives Geomatics Department) island centroid"
      },
      "geometry": {
        "type": "Point",
        "coordinates": [
          73.46984152778627,
          3.3148923703381414
        ]
      }
    },
    {
      "type": "Feature",
      "properties": {
        "join_key": "HA.Thakandhoo",
        "atoll": "HA",
        "island": "Thakandhoo",
        "name": "Thakandhoo",
        "fallback_coordinates": false,
        "source": "onemap.mv (Maldives Geomatics Department) island centroid"
      },
      "geometry": {
        "type": "Point",
        "coordinates": [
          72.99553048108214,
          6.844009897727176
        ]
      }
    },
    {
      "type": "Feature",
      "properties": {
        "join_key": "Sh.Narudhoo",
        "atoll": "Sh",
        "island": "Narudhoo",
        "name": "Narudhoo",
        "fallback_coordinates": false,
        "source": "onemap.mv (Maldives Geomatics Department) island centroid"
      },
      "geometry": {
        "type": "Point",
        "coordinates": [
          73.21811586533414,
          6.264332774981062
        ]
      }
    },
    {
      "type": "Feature",
      "properties": {
        "join_key": "HA.Filladhoo",
        "atoll": "HA",
        "island": "Filladhoo",
        "name": "Filladhoo",
        "fallback_coordinates": false,
        "source": "onemap.mv (Maldives Geomatics Department) island centroid"
      },
      "geometry": {
        "type": "Point",
        "coordinates": [
          73.23014669586969,
          6.889194882889892
        ]
      }
    },
    {
      "type": "Feature",
      "properties": {
        "join_key": "Sh.Kanditheemu",
        "atoll": "Sh",
        "island": "Kanditheemu",
        "name": "Kanditheemu",
        "fallback_coordinates": false,
        "source": "onemap.mv (Maldives Geomatics Department) island centroid"
      },
      "geometry": {
        "type": "Point",
        "coordinates": [
          72.91646207311958,
          6.440347081015818
        ]
      }
    },
    {
      "type": "Feature",
      "properties": {
        "join_key": "HA.Dhihdhoo",
        "atoll": "HA",
        "island": "Dhihdhoo",
        "name": "Dhihdhoo",
        "fallback_coordinates": false,
        "source": "onemap.mv (Maldives Geomatics Department) island centroid - fuzzy matched to \"Dhidhdhoo\""
      },
      "geometry": {
        "type": "Point",
        "coordinates": [
          73.1111583472134,
          6.888798673828813
        ]
      }
    },
    {
      "type": "Feature",
      "properties": {
        "join_key": "K.Guraidhoo",
        "atoll": "K",
        "island": "Guraidhoo",
        "name": "Guraidhoo",
        "fallback_coordinates": false,
        "source": "onemap.mv (Maldives Geomatics Department) island centroid"
      },
      "geometry": {
        "type": "Point",
        "coordinates": [
          73.46806042781333,
          3.9007982571883275
        ]
      }
    },
    {
      "type": "Feature",
      "properties": {
        "join_key": "L.Fonadhoo",
        "atoll": "L",
        "island": "Fonadhoo",
        "name": "Fonadhoo",
        "fallback_coordinates": false,
        "source": "onemap.mv (Maldives Geomatics Department) island centroid"
      },
      "geometry": {
        "type": "Point",
        "coordinates": [
          73.50051383502658,
          1.8330597424620918
        ]
      }
    },
    {
      "type": "Feature",
      "properties": {
        "join_key": "ADh.Dhangethi",
        "atoll": "ADh",
        "island": "Dhangethi",
        "name": "Dhangethi",
        "fallback_coordinates": false,
        "source": "onemap.mv (Maldives Geomatics Department) island centroid"
      },
      "geometry": {
        "type": "Point",
        "coordinates": [
          72.95585036049897,
          3.607661708698107
        ]
      }
    },
    {
      "type": "Feature",
      "properties": {
        "join_key": "F.Nilandhoo",
        "atoll": "F",
        "island": "Nilandhoo",
        "name": "Nilandhoo",
        "fallback_coordinates": false,
        "source": "onemap.mv (Maldives Geomatics Department) island centroid"
      },
      "geometry": {
        "type": "Point",
        "coordinates": [
          72.88899079276376,
          3.0569279858188896
        ]
      }
    },
    {
      "type": "Feature",
      "properties": {
        "join_key": "HDh.Nellaidhoo",
        "atoll": "HDh",
        "island": "Nellaidhoo",
        "name": "Nellaidhoo",
        "fallback_coordinates": false,
        "source": "onemap.mv (Maldives Geomatics Department) island centroid"
      },
      "geometry": {
        "type": "Point",
        "coordinates": [
          72.9469009963059,
          6.714911365351187
        ]
      }
    },
    {
      "type": "Feature",
      "properties": {
        "join_key": "K.Maafushi",
        "atoll": "K",
        "island": "Maafushi",
        "name": "Maafushi",
        "fallback_coordinates": false,
        "source": "onemap.mv (Maldives Geomatics Department) island centroid"
      },
      "geometry": {
        "type": "Point",
        "coordinates": [
          73.4896698807127,
          3.9409855997577035
        ]
      }
    },
    {
      "type": "Feature",
      "properties": {
        "join_key": "Sh.Funadhoo",
        "atoll": "Sh",
        "island": "Funadhoo",
        "name": "Funadhoo",
        "fallback_coordinates": false,
        "source": "onemap.mv (Maldives Geomatics Department) island centroid"
      },
      "geometry": {
        "type": "Point",
        "coordinates": [
          73.28967439556479,
          6.152454036556718
        ]
      }
    },
    {
      "type": "Feature",
      "properties": {
        "join_key": "N.Velidhoo",
        "atoll": "N",
        "island": "Velidhoo",
        "name": "Velidhoo",
        "fallback_coordinates": false,
        "source": "onemap.mv (Maldives Geomatics Department) island centroid"
      },
      "geometry": {
        "type": "Point",
        "coordinates": [
          73.27338459494665,
          5.664638983327979
        ]
      }
    },
    {
      "type": "Feature",
      "properties": {
        "join_key": "Lh.Hinnavaru",
        "atoll": "Lh",
        "island": "Hinnavaru",
        "name": "Hinnavaru",
        "fallback_coordinates": false,
        "source": "onemap.mv (Maldives Geomatics Department) island centroid"
      },
      "geometry": {
        "type": "Point",
        "coordinates": [
          73.41135049159105,
          5.492583301446077
        ]
      }
    },
    {
      "type": "Feature",
      "properties": {
        "join_key": "N.Kendhikulhudhoo",
        "atoll": "N",
        "island": "Kendhikulhudhoo",
        "name": "Kendhikulhudhoo",
        "fallback_coordinates": false,
        "source": "onemap.mv (Maldives Geomatics Department) island centroid"
      },
      "geometry": {
        "type": "Point",
        "coordinates": [
          73.41586421563406,
          5.952637321301192
        ]
      }
    },
    {
      "type": "Feature",
      "properties": {
        "join_key": "N.Manadhoo",
        "atoll": "N",
        "island": "Manadhoo",
        "name": "Manadhoo",
        "fallback_coordinates": false,
        "source": "onemap.mv (Maldives Geomatics Department) island centroid"
      },
      "geometry": {
        "type": "Point",
        "coordinates": [
          73.41077618940565,
          5.765720572251347
        ]
      }
    },
    {
      "type": "Feature",
      "properties": {
        "join_key": "B.Thulhaadhoo",
        "atoll": "B",
        "island": "Thulhaadhoo",
        "name": "Thulhaadhoo",
        "fallback_coordinates": false,
        "source": "onemap.mv (Maldives Geomatics Department) island centroid"
      },
      "geometry": {
        "type": "Point",
        "coordinates": [
          72.84117720705214,
          5.021793543275414
        ]
      }
    },
    {
      "type": "Feature",
      "properties": {
        "join_key": "B.Kendhoo",
        "atoll": "B",
        "island": "Kendhoo",
        "name": "Kendhoo",
        "fallback_coordinates": false,
        "source": "onemap.mv (Maldives Geomatics Department) island centroid"
      },
      "geometry": {
        "type": "Point",
        "coordinates": [
          73.0101669707176,
          5.275379214045338
        ]
      }
    },
    {
      "type": "Feature",
      "properties": {
        "join_key": "N.Magoodhoo",
        "atoll": "N",
        "island": "Magoodhoo",
        "name": "Magoodhoo",
        "fallback_coordinates": false,
        "source": "onemap.mv (Maldives Geomatics Department) island centroid"
      },
      "geometry": {
        "type": "Point",
        "coordinates": [
          73.36247735923726,
          5.7764732457469385
        ]
      }
    },
    {
      "type": "Feature",
      "properties": {
        "join_key": "HA.Dhidhdhoo",
        "atoll": "HA",
        "island": "Dhidhdhoo",
        "name": "Dhidhdhoo",
        "fallback_coordinates": false,
        "source": "onemap.mv (Maldives Geomatics Department) island centroid"
      },
      "geometry": {
        "type": "Point",
        "coordinates": [
          73.1111583472134,
          6.888798673828813
        ]
      }
    },
    {
      "type": "Feature",
      "properties": {
        "join_key": "HA.Ihavandhoo",
        "atoll": "HA",
        "island": "Ihavandhoo",
        "name": "Ihavandhoo",
        "fallback_coordinates": false,
        "source": "onemap.mv (Maldives Geomatics Department) island centroid"
      },
      "geometry": {
        "type": "Point",
        "coordinates": [
          72.92620508121514,
          6.953048464912076
        ]
      }
    },
    {
      "type": "Feature",
      "properties": {
        "join_key": "HA.Vashafaru",
        "atoll": "HA",
        "island": "Vashafaru",
        "name": "Vashafaru",
        "fallback_coordinates": false,
        "source": "onemap.mv (Maldives Geomatics Department) island centroid"
      },
      "geometry": {
        "type": "Point",
        "coordinates": [
          73.16080683753555,
          6.897462686171244
        ]
      }
    },
    {
      "type": "Feature",
      "properties": {
        "join_key": "HA.Utheem",
        "atoll": "HA",
        "island": "Utheem",
        "name": "Utheem",
        "fallback_coordinates": false,
        "source": "onemap.mv (Maldives Geomatics Department) island centroid - fuzzy matched to \"Utheemu\""
      },
      "geometry": {
        "type": "Point",
        "coordinates": [
          73.11270272382843,
          6.834831504793022
        ]
      }
    },
    {
      "type": "Feature",
      "properties": {
        "join_key": "HDh.Hanimaadhoo",
        "atoll": "HDh",
        "island": "Hanimaadhoo",
        "name": "Hanimaadhoo",
        "fallback_coordinates": false,
        "source": "onemap.mv (Maldives Geomatics Department) island centroid"
      },
      "geometry": {
        "type": "Point",
        "coordinates": [
          73.17324452033114,
          6.756432505546139
        ]
      }
    },
    {
      "type": "Feature",
      "properties": {
        "join_key": "HDh.Nolhivaranfaru",
        "atoll": "HDh",
        "island": "Nolhivaranfaru",
        "name": "Nolhivaranfaru",
        "fallback_coordinates": false,
        "source": "onemap.mv (Maldives Geomatics Department) island centroid"
      },
      "geometry": {
        "type": "Point",
        "coordinates": [
          73.1200498048534,
          6.6973248454522665
        ]
      }
    },
    {
      "type": "Feature",
      "properties": {
        "join_key": "Sh.Fokaidhoo",
        "atoll": "Sh",
        "island": "Fokaidhoo",
        "name": "Fokaidhoo",
        "fallback_coordinates": false,
        "source": "onemap.mv (Maldives Geomatics Department) island centroid - fuzzy matched to \"Foakaidhoo\""
      },
      "geometry": {
        "type": "Point",
        "coordinates": [
          73.14933104617636,
          6.326647130603511
        ]
      }
    },
    {
      "type": "Feature",
      "properties": {
        "join_key": "B.Dharavandhoo",
        "atoll": "B",
        "island": "Dharavandhoo",
        "name": "Dharavandhoo",
        "fallback_coordinates": false,
        "source": "onemap.mv (Maldives Geomatics Department) island centroid"
      },
      "geometry": {
        "type": "Point",
        "coordinates": [
          73.13102595301635,
          5.1572901927412635
        ]
      }
    },
    {
      "type": "Feature",
      "properties": {
        "join_key": "R.Fainu",
        "atoll": "R",
        "island": "Fainu",
        "name": "Fainu",
        "fallback_coordinates": false,
        "source": "onemap.mv (Maldives Geomatics Department) island centroid"
      },
      "geometry": {
        "type": "Point",
        "coordinates": [
          73.03458327284206,
          5.463451215427821
        ]
      }
    },
    {
      "type": "Feature",
      "properties": {
        "join_key": "AA.Feridhoo",
        "atoll": "AA",
        "island": "Feridhoo",
        "name": "Feridhoo",
        "fallback_coordinates": false,
        "source": "onemap.mv (Maldives Geomatics Department) island centroid"
      },
      "geometry": {
        "type": "Point",
        "coordinates": [
          72.72562843607827,
          4.051064037238569
        ]
      }
    },
    {
      "type": "Feature",
      "properties": {
        "join_key": "ADh.Kunburudhoo",
        "atoll": "ADh",
        "island": "Kunburudhoo",
        "name": "Kunburudhoo",
        "fallback_coordinates": false,
        "source": "onemap.mv (Maldives Geomatics Department) island centroid"
      },
      "geometry": {
        "type": "Point",
        "coordinates": [
          72.92521831056024,
          3.775583711800348
        ]
      }
    },
    {
      "type": "Feature",
      "properties": {
        "join_key": "B.Dhonfanu",
        "atoll": "B",
        "island": "Dhonfanu",
        "name": "Dhonfanu",
        "fallback_coordinates": false,
        "source": "onemap.mv (Maldives Geomatics Department) island centroid - fuzzy matched to \"Dhonfan\""
      },
      "geometry": {
        "type": "Point",
        "coordinates": [
          73.12285120353556,
          5.187851958735484
        ]
      }
    },
    {
      "type": "Feature",
      "properties": {
        "join_key": "GDh.Rathafandhoo",
        "atoll": "GDh",
        "island": "Rathafandhoo",
        "name": "Rathafandhoo",
        "fallback_coordinates": false,
        "source": "onemap.mv (Maldives Geomatics Department) island centroid"
      },
      "geometry": {
        "type": "Point",
        "coordinates": [
          73.10459214332717,
          0.2526539262100834
        ]
      }
    },
    {
      "type": "Feature",
      "properties": {
        "join_key": "GA.Dhehvadhoo",
        "atoll": "GA",
        "island": "Dhehvadhoo",
        "name": "Dhehvadhoo",
        "fallback_coordinates": false,
        "source": "onemap.mv (Maldives Geomatics Department) island centroid - fuzzy matched to \"Dhevvadhoo\""
      },
      "geometry": {
        "type": "Point",
        "coordinates": [
          73.24216392339278,
          0.5570708491999912
        ]
      }
    },
    {
      "type": "Feature",
      "properties": {
        "join_key": "B.Kudarikilu",
        "atoll": "B",
        "island": "Kudarikilu",
        "name": "Kudarikilu",
        "fallback_coordinates": false,
        "source": "onemap.mv (Maldives Geomatics Department) island centroid"
      },
      "geometry": {
        "type": "Point",
        "coordinates": [
          73.07088406788866,
          5.300394505932621
        ]
      }
    },
    {
      "type": "Feature",
      "properties": {
        "join_key": "GA.Kanduhulhudhoo",
        "atoll": "GA",
        "island": "Kanduhulhudhoo",
        "name": "Kanduhulhudhoo",
        "fallback_coordinates": false,
        "source": "onemap.mv (Maldives Geomatics Department) island centroid"
      },
      "geometry": {
        "type": "Point",
        "coordinates": [
          73.53964201110811,
          0.3511466205918963
        ]
      }
    },
    {
      "type": "Feature",
      "properties": {
        "join_key": "GA.Dhaandhoo",
        "atoll": "GA",
        "island": "Dhaandhoo",
        "name": "Dhaandhoo",
        "fallback_coordinates": false,
        "source": "onemap.mv (Maldives Geomatics Department) island centroid"
      },
      "geometry": {
        "type": "Point",
        "coordinates": [
          73.46125483695717,
          0.6209219671998749
        ]
      }
    },
    {
      "type": "Feature",
      "properties": {
        "join_key": "GDh.Faresmaathodhaa",
        "atoll": "GDh",
        "island": "Faresmaathodhaa",
        "name": "Faresmaathodhaa",
        "fallback_coordinates": false,
        "source": "onemap.mv (Maldives Geomatics Department) island centroid - fuzzy matched to \"Faresmaathodaa\""
      },
      "geometry": {
        "type": "Point",
        "coordinates": [
          73.18708968036569,
          0.19983780089726005
        ]
      }
    },
    {
      "type": "Feature",
      "properties": {
        "join_key": "GA.Villigili",
        "atoll": "GA",
        "island": "Villigili",
        "name": "Villigili",
        "fallback_coordinates": false,
        "source": "onemap.mv (Maldives Geomatics Department) island centroid - fuzzy matched to \"Vilin'gili\""
      },
      "geometry": {
        "type": "Point",
        "coordinates": [
          73.43536699323947,
          0.7565078115594248
        ]
      }
    },
    {
      "type": "Feature",
      "properties": {
        "join_key": "GDh.Hoadedhoo",
        "atoll": "GDh",
        "island": "Hoadedhoo",
        "name": "Hoadedhoo",
        "fallback_coordinates": false,
        "source": "onemap.mv (Maldives Geomatics Department) island centroid - fuzzy matched to \"Hoan'dehdhoo\""
      },
      "geometry": {
        "type": "Point",
        "coordinates": [
          73.00361365208448,
          0.4447642265729
        ]
      }
    },
    {
      "type": "Feature",
      "properties": {
        "join_key": "HDh.Kunburudhoo",
        "atoll": "HDh",
        "island": "Kunburudhoo",
        "name": "Kunburudhoo",
        "fallback_coordinates": false,
        "source": "onemap.mv (Maldives Geomatics Department) island centroid"
      },
      "geometry": {
        "type": "Point",
        "coordinates": [
          73.02741089390621,
          6.658269933137817
        ]
      }
    },
    {
      "type": "Feature",
      "properties": {
        "join_key": "GDh.Nadella",
        "atoll": "GDh",
        "island": "Nadella",
        "name": "Nadella",
        "fallback_coordinates": false,
        "source": "onemap.mv (Maldives Geomatics Department) island centroid - fuzzy matched to \"Nadellaa\""
      },
      "geometry": {
        "type": "Point",
        "coordinates": [
          73.04064637281685,
          0.2933939141745947
        ]
      }
    },
    {
      "type": "Feature",
      "properties": {
        "join_key": "GDh.Fiyori",
        "atoll": "GDh",
        "island": "Fiyori",
        "name": "Fiyori",
        "fallback_coordinates": true,
        "source": "Generated fallback coordinates. Replace with islands repo GeoJSON for accurate geometry."
      },
      "geometry": {
        "type": "Point",
        "coordinates": [
          73.1076,
          0.3814
        ]
      }
    },
    {
      "type": "Feature",
      "properties": {
        "join_key": "GA.Kondey",
        "atoll": "GA",
        "island": "Kondey",
        "name": "Kondey",
        "fallback_coordinates": false,
        "source": "onemap.mv (Maldives Geomatics Department) island centroid"
      },
      "geometry": {
        "type": "Point",
        "coordinates": [
          73.54878858472196,
          0.4987517887075045
        ]
      }
    },
    {
      "type": "Feature",
      "properties": {
        "join_key": "GA.Devvadhoo",
        "atoll": "GA",
        "island": "Devvadhoo",
        "name": "Devvadhoo",
        "fallback_coordinates": false,
        "source": "onemap.mv (Maldives Geomatics Department) island centroid - fuzzy matched to \"Dhevvadhoo\""
      },
      "geometry": {
        "type": "Point",
        "coordinates": [
          73.24216392339278,
          0.5570708491999912
        ]
      }
    },
    {
      "type": "Feature",
      "properties": {
        "join_key": "GDh.Vaadhoo",
        "atoll": "GDh",
        "island": "Vaadhoo",
        "name": "Vaadhoo",
        "fallback_coordinates": false,
        "source": "onemap.mv (Maldives Geomatics Department) island centroid"
      },
      "geometry": {
        "type": "Point",
        "coordinates": [
          73.2736336771287,
          0.22736956095237038
        ]
      }
    },
    {
      "type": "Feature",
      "properties": {
        "join_key": "GDh.Gadhdhoo",
        "atoll": "GDh",
        "island": "Gadhdhoo",
        "name": "Gadhdhoo",
        "fallback_coordinates": false,
        "source": "onemap.mv (Maldives Geomatics Department) island centroid"
      },
      "geometry": {
        "type": "Point",
        "coordinates": [
          73.45762319076769,
          0.29006271831042363
        ]
      }
    },
    {
      "type": "Feature",
      "properties": {
        "join_key": "Dh.Bandhidhoo",
        "atoll": "Dh",
        "island": "Bandhidhoo",
        "name": "Bandhidhoo",
        "fallback_coordinates": false,
        "source": "onemap.mv (Maldives Geomatics Department) island centroid - fuzzy matched to \"Ban'didhoo\""
      },
      "geometry": {
        "type": "Point",
        "coordinates": [
          72.99037025295101,
          2.9365985812212836
        ]
      }
    },
    {
      "type": "Feature",
      "properties": {
        "join_key": "Sh.Foakaidhoo",
        "atoll": "Sh",
        "island": "Foakaidhoo",
        "name": "Foakaidhoo",
        "fallback_coordinates": false,
        "source": "onemap.mv (Maldives Geomatics Department) island centroid"
      },
      "geometry": {
        "type": "Point",
        "coordinates": [
          73.14933104617636,
          6.326647130603511
        ]
      }
    },
    {
      "type": "Feature",
      "properties": {
        "join_key": "Sh.Goidhoo",
        "atoll": "Sh",
        "island": "Goidhoo",
        "name": "Goidhoo",
        "fallback_coordinates": false,
        "source": "onemap.mv (Maldives Geomatics Department) island centroid"
      },
      "geometry": {
        "type": "Point",
        "coordinates": [
          72.92995419568761,
          6.430080003767831
        ]
      }
    },
    {
      "type": "Feature",
      "properties": {
        "join_key": "Sh.Maaugoodhoo",
        "atoll": "Sh",
        "island": "Maaugoodhoo",
        "name": "Maaugoodhoo",
        "fallback_coordinates": false,
        "source": "onemap.mv (Maldives Geomatics Department) island centroid - fuzzy matched to \"Maaun'goodhoo\""
      },
      "geometry": {
        "type": "Point",
        "coordinates": [
          73.28383788367341,
          6.036740876122848
        ]
      }
    },
    {
      "type": "Feature",
      "properties": {
        "join_key": "N.Fodhdhoo",
        "atoll": "N",
        "island": "Fodhdhoo",
        "name": "Fodhdhoo",
        "fallback_coordinates": false,
        "source": "onemap.mv (Maldives Geomatics Department) island centroid"
      },
      "geometry": {
        "type": "Point",
        "coordinates": [
          73.21599524376627,
          5.743755785452965
        ]
      }
    },
    {
      "type": "Feature",
      "properties": {
        "join_key": "R.Agolhitheemu",
        "atoll": "R",
        "island": "Agolhitheemu",
        "name": "Agolhitheemu",
        "fallback_coordinates": false,
        "source": "onemap.mv (Maldives Geomatics Department) island centroid - fuzzy matched to \"An'golhitheemu\""
      },
      "geometry": {
        "type": "Point",
        "coordinates": [
          73.00663725908348,
          5.7927265757919315
        ]
      }
    },
    {
      "type": "Feature",
      "properties": {
        "join_key": "R.Alifushi",
        "atoll": "R",
        "island": "Alifushi",
        "name": "Alifushi",
        "fallback_coordinates": false,
        "source": "onemap.mv (Maldives Geomatics Department) island centroid"
      },
      "geometry": {
        "type": "Point",
        "coordinates": [
          72.95338396473996,
          5.967318410230287
        ]
      }
    },
    {
      "type": "Feature",
      "properties": {
        "join_key": "R.Dhuvaafaru",
        "atoll": "R",
        "island": "Dhuvaafaru",
        "name": "Dhuvaafaru",
        "fallback_coordinates": false,
        "source": "onemap.mv (Maldives Geomatics Department) island centroid"
      },
      "geometry": {
        "type": "Point",
        "coordinates": [
          73.04159469240555,
          5.628718687170162
        ]
      }
    },
    {
      "type": "Feature",
      "properties": {
        "join_key": "R.Hulhudhuffaaru",
        "atoll": "R",
        "island": "Hulhudhuffaaru",
        "name": "Hulhudhuffaaru",
        "fallback_coordinates": false,
        "source": "onemap.mv (Maldives Geomatics Department) island centroid"
      },
      "geometry": {
        "type": "Point",
        "coordinates": [
          73.01235776738675,
          5.764998435473789
        ]
      }
    },
    {
      "type": "Feature",
      "properties": {
        "join_key": "R.Kinolhas",
        "atoll": "R",
        "island": "Kinolhas",
        "name": "Kinolhas",
        "fallback_coordinates": false,
        "source": "onemap.mv (Maldives Geomatics Department) island centroid"
      },
      "geometry": {
        "type": "Point",
        "coordinates": [
          73.02930857242481,
          5.448479192519822
        ]
      }
    },
    {
      "type": "Feature",
      "properties": {
        "join_key": "R.Maduvvari",
        "atoll": "R",
        "island": "Maduvvari",
        "name": "Maduvvari",
        "fallback_coordinates": false,
        "source": "onemap.mv (Maldives Geomatics Department) island centroid"
      },
      "geometry": {
        "type": "Point",
        "coordinates": [
          72.89590705461117,
          5.486192051951634
        ]
      }
    },
    {
      "type": "Feature",
      "properties": {
        "join_key": "R.Meedhoo",
        "atoll": "R",
        "island": "Meedhoo",
        "name": "Meedhoo",
        "fallback_coordinates": false,
        "source": "onemap.mv (Maldives Geomatics Department) island centroid"
      },
      "geometry": {
        "type": "Point",
        "coordinates": [
          72.95503358427317,
          5.45817999309561
        ]
      }
    },
    {
      "type": "Feature",
      "properties": {
        "join_key": "R.Ungoofaaru",
        "atoll": "R",
        "island": "Ungoofaaru",
        "name": "Ungoofaaru",
        "fallback_coordinates": false,
        "source": "onemap.mv (Maldives Geomatics Department) island centroid"
      },
      "geometry": {
        "type": "Point",
        "coordinates": [
          73.0301046714007,
          5.668216877873508
        ]
      }
    },
    {
      "type": "Feature",
      "properties": {
        "join_key": "B.Fehendhoo",
        "atoll": "B",
        "island": "Fehendhoo",
        "name": "Fehendhoo",
        "fallback_coordinates": false,
        "source": "onemap.mv (Maldives Geomatics Department) island centroid"
      },
      "geometry": {
        "type": "Point",
        "coordinates": [
          72.96960303229682,
          4.881568615312697
        ]
      }
    },
    {
      "type": "Feature",
      "properties": {
        "join_key": "B.Fulhadhoo",
        "atoll": "B",
        "island": "Fulhadhoo",
        "name": "Fulhadhoo",
        "fallback_coordinates": false,
        "source": "onemap.mv (Maldives Geomatics Department) island centroid"
      },
      "geometry": {
        "type": "Point",
        "coordinates": [
          72.9329840944385,
          4.884884396358269
        ]
      }
    },
    {
      "type": "Feature",
      "properties": {
        "join_key": "B.Goidhoo",
        "atoll": "B",
        "island": "Goidhoo",
        "name": "Goidhoo",
        "fallback_coordinates": false,
        "source": "onemap.mv (Maldives Geomatics Department) island centroid"
      },
      "geometry": {
        "type": "Point",
        "coordinates": [
          72.99889657495675,
          4.873078162093685
        ]
      }
    },
    {
      "type": "Feature",
      "properties": {
        "join_key": "B.Kihaadhoo",
        "atoll": "B",
        "island": "Kihaadhoo",
        "name": "Kihaadhoo",
        "fallback_coordinates": false,
        "source": "onemap.mv (Maldives Geomatics Department) island centroid"
      },
      "geometry": {
        "type": "Point",
        "coordinates": [
          73.12505429316715,
          5.215063198037976
        ]
      }
    },
    {
      "type": "Feature",
      "properties": {
        "join_key": "K.Dhiffushi",
        "atoll": "K",
        "island": "Dhiffushi",
        "name": "Dhiffushi",
        "fallback_coordinates": false,
        "source": "onemap.mv (Maldives Geomatics Department) island centroid"
      },
      "geometry": {
        "type": "Point",
        "coordinates": [
          73.7141904466178,
          4.4417245599262465
        ]
      }
    },
    {
      "type": "Feature",
      "properties": {
        "join_key": "K.Gaafaru",
        "atoll": "K",
        "island": "Gaafaru",
        "name": "Gaafaru",
        "fallback_coordinates": false,
        "source": "onemap.mv (Maldives Geomatics Department) island centroid"
      },
      "geometry": {
        "type": "Point",
        "coordinates": [
          73.49974187706472,
          4.736055046395982
        ]
      }
    },
    {
      "type": "Feature",
      "properties": {
        "join_key": "AA.Bodufolhudhoo",
        "atoll": "AA",
        "island": "Bodufolhudhoo",
        "name": "Bodufolhudhoo",
        "fallback_coordinates": false,
        "source": "onemap.mv (Maldives Geomatics Department) island centroid"
      },
      "geometry": {
        "type": "Point",
        "coordinates": [
          72.77339352553521,
          4.185631891847286
        ]
      }
    },
    {
      "type": "Feature",
      "properties": {
        "join_key": "AA.Maalhos",
        "atoll": "AA",
        "island": "Maalhos",
        "name": "Maalhos",
        "fallback_coordinates": false,
        "source": "onemap.mv (Maldives Geomatics Department) island centroid"
      },
      "geometry": {
        "type": "Point",
        "coordinates": [
          72.71943583271064,
          3.9863375137797177
        ]
      }
    },
    {
      "type": "Feature",
      "properties": {
        "join_key": "ADh.Dhagethi",
        "atoll": "ADh",
        "island": "Dhagethi",
        "name": "Dhagethi",
        "fallback_coordinates": false,
        "source": "onemap.mv (Maldives Geomatics Department) island centroid - fuzzy matched to \"Dhan'gethi\""
      },
      "geometry": {
        "type": "Point",
        "coordinates": [
          72.95585036049897,
          3.607661708698107
        ]
      }
    },
    {
      "type": "Feature",
      "properties": {
        "join_key": "ADh.Dhidhdhoo",
        "atoll": "ADh",
        "island": "Dhidhdhoo",
        "name": "Dhidhdhoo",
        "fallback_coordinates": false,
        "source": "onemap.mv (Maldives Geomatics Department) island centroid"
      },
      "geometry": {
        "type": "Point",
        "coordinates": [
          72.87785188621005,
          3.4841299823526612
        ]
      }
    },
    {
      "type": "Feature",
      "properties": {
        "join_key": "ADh.Dhigurah",
        "atoll": "ADh",
        "island": "Dhigurah",
        "name": "Dhigurah",
        "fallback_coordinates": false,
        "source": "onemap.mv (Maldives Geomatics Department) island centroid"
      },
      "geometry": {
        "type": "Point",
        "coordinates": [
          72.92580476905141,
          3.5302995155620827
        ]
      }
    },
    {
      "type": "Feature",
      "properties": {
        "join_key": "ADh.Maamigili",
        "atoll": "ADh",
        "island": "Maamigili",
        "name": "Maamigili",
        "fallback_coordinates": false,
        "source": "onemap.mv (Maldives Geomatics Department) island centroid"
      },
      "geometry": {
        "type": "Point",
        "coordinates": [
          72.83490503539986,
          3.4739950298581017
        ]
      }
    },
    {
      "type": "Feature",
      "properties": {
        "join_key": "ADh.Mandhoo",
        "atoll": "ADh",
        "island": "Mandhoo",
        "name": "Mandhoo",
        "fallback_coordinates": false,
        "source": "onemap.mv (Maldives Geomatics Department) island centroid"
      },
      "geometry": {
        "type": "Point",
        "coordinates": [
          72.70956261935252,
          3.6977946999539597
        ]
      }
    },
    {
      "type": "Feature",
      "properties": {
        "join_key": "M.Maduvvari",
        "atoll": "M",
        "island": "Maduvvari",
        "name": "Maduvvari",
        "fallback_coordinates": false,
        "source": "onemap.mv (Maldives Geomatics Department) island centroid"
      },
      "geometry": {
        "type": "Point",
        "coordinates": [
          73.57311214875982,
          3.1050418249316456
        ]
      }
    },
    {
      "type": "Feature",
      "properties": {
        "join_key": "M.Naalaafushi",
        "atoll": "M",
        "island": "Naalaafushi",
        "name": "Naalaafushi",
        "fallback_coordinates": false,
        "source": "onemap.mv (Maldives Geomatics Department) island centroid"
      },
      "geometry": {
        "type": "Point",
        "coordinates": [
          73.57738502975577,
          2.895116540302552
        ]
      }
    },
    {
      "type": "Feature",
      "properties": {
        "join_key": "M.Veyvah",
        "atoll": "M",
        "island": "Veyvah",
        "name": "Veyvah",
        "fallback_coordinates": false,
        "source": "onemap.mv (Maldives Geomatics Department) island centroid"
      },
      "geometry": {
        "type": "Point",
        "coordinates": [
          73.59997944954806,
          2.9562171675263262
        ]
      }
    },
    {
      "type": "Feature",
      "properties": {
        "join_key": "F.Biledhdhoo",
        "atoll": "F",
        "island": "Biledhdhoo",
        "name": "Biledhdhoo",
        "fallback_coordinates": false,
        "source": "onemap.mv (Maldives Geomatics Department) island centroid - fuzzy matched to \"Bileiydhoo\""
      },
      "geometry": {
        "type": "Point",
        "coordinates": [
          72.98412970579416,
          3.1183500031788616
        ]
      }
    },
    {
      "type": "Feature",
      "properties": {
        "join_key": "F.Dharaboodhoo",
        "atoll": "F",
        "island": "Dharaboodhoo",
        "name": "Dharaboodhoo",
        "fallback_coordinates": false,
        "source": "onemap.mv (Maldives Geomatics Department) island centroid - fuzzy matched to \"Dharan'boodhoo\""
      },
      "geometry": {
        "type": "Point",
        "coordinates": [
          72.92598740797281,
          3.062873514953201
        ]
      }
    },
    {
      "type": "Feature",
      "properties": {
        "join_key": "Th.Gaadhiffushi",
        "atoll": "Th",
        "island": "Gaadhiffushi",
        "name": "Gaadhiffushi",
        "fallback_coordinates": false,
        "source": "onemap.mv (Maldives Geomatics Department) island centroid"
      },
      "geometry": {
        "type": "Point",
        "coordinates": [
          73.21276486943404,
          2.25252677179583
        ]
      }
    },
    {
      "type": "Feature",
      "properties": {
        "join_key": "Th.Hirilandhoo",
        "atoll": "Th",
        "island": "Hirilandhoo",
        "name": "Hirilandhoo",
        "fallback_coordinates": false,
        "source": "onemap.mv (Maldives Geomatics Department) island centroid"
      },
      "geometry": {
        "type": "Point",
        "coordinates": [
          72.93169788865805,
          2.2710956151648745
        ]
      }
    },
    {
      "type": "Feature",
      "properties": {
        "join_key": "Th.Kandoodhoo",
        "atoll": "Th",
        "island": "Kandoodhoo",
        "name": "Kandoodhoo",
        "fallback_coordinates": false,
        "source": "onemap.mv (Maldives Geomatics Department) island centroid"
      },
      "geometry": {
        "type": "Point",
        "coordinates": [
          72.91665240628625,
          2.3209434310479775
        ]
      }
    },
    {
      "type": "Feature",
      "properties": {
        "join_key": "Th.Vilufushi",
        "atoll": "Th",
        "island": "Vilufushi",
        "name": "Vilufushi",
        "fallback_coordinates": false,
        "source": "onemap.mv (Maldives Geomatics Department) island centroid"
      },
      "geometry": {
        "type": "Point",
        "coordinates": [
          73.30855373470229,
          2.5032579539142503
        ]
      }
    },
    {
      "type": "Feature",
      "properties": {
        "join_key": "L.Hithadhoo",
        "atoll": "L",
        "island": "Hithadhoo",
        "name": "Hithadhoo",
        "fallback_coordinates": false,
        "source": "onemap.mv (Maldives Geomatics Department) island centroid"
      },
      "geometry": {
        "type": "Point",
        "coordinates": [
          73.38849280965506,
          1.7970655730773935
        ]
      }
    },
    {
      "type": "Feature",
      "properties": {
        "join_key": "L.Isdhoo",
        "atoll": "L",
        "island": "Isdhoo",
        "name": "Isdhoo",
        "fallback_coordinates": false,
        "source": "onemap.mv (Maldives Geomatics Department) island centroid"
      },
      "geometry": {
        "type": "Point",
        "coordinates": [
          73.57785736076762,
          2.123803187873528
        ]
      }
    },
    {
      "type": "Feature",
      "properties": {
        "join_key": "L.Kalaidhoo",
        "atoll": "L",
        "island": "Kalaidhoo",
        "name": "Kalaidhoo",
        "fallback_coordinates": false,
        "source": "onemap.mv (Maldives Geomatics Department) island centroid"
      },
      "geometry": {
        "type": "Point",
        "coordinates": [
          73.56015135239925,
          2.114925707048264
        ]
      }
    },
    {
      "type": "Feature",
      "properties": {
        "join_key": "L.Kunahandhoo",
        "atoll": "L",
        "island": "Kunahandhoo",
        "name": "Kunahandhoo",
        "fallback_coordinates": false,
        "source": "onemap.mv (Maldives Geomatics Department) island centroid"
      },
      "geometry": {
        "type": "Point",
        "coordinates": [
          73.36816893260902,
          1.7829242980302895
        ]
      }
    },
    {
      "type": "Feature",
      "properties": {
        "join_key": "L.Maabaidhoo",
        "atoll": "L",
        "island": "Maabaidhoo",
        "name": "Maabaidhoo",
        "fallback_coordinates": false,
        "source": "onemap.mv (Maldives Geomatics Department) island centroid"
      },
      "geometry": {
        "type": "Point",
        "coordinates": [
          73.53252363218829,
          2.0290467990024155
        ]
      }
    },
    {
      "type": "Feature",
      "properties": {
        "join_key": "L.Maamendhoo",
        "atoll": "L",
        "island": "Maamendhoo",
        "name": "Maamendhoo",
        "fallback_coordinates": false,
        "source": "onemap.mv (Maldives Geomatics Department) island centroid"
      },
      "geometry": {
        "type": "Point",
        "coordinates": [
          73.38948449396817,
          1.8174477567691156
        ]
      }
    },
    {
      "type": "Feature",
      "properties": {
        "join_key": "L.Mundoo",
        "atoll": "L",
        "island": "Mundoo",
        "name": "Mundoo",
        "fallback_coordinates": false,
        "source": "onemap.mv (Maldives Geomatics Department) island centroid"
      },
      "geometry": {
        "type": "Point",
        "coordinates": [
          73.53416885565508,
          2.0125025255399422
        ]
      }
    },
    {
      "type": "Feature",
      "properties": {
        "join_key": "GA.Kolamaafushi",
        "atoll": "GA",
        "island": "Kolamaafushi",
        "name": "Kolamaafushi",
        "fallback_coordinates": false,
        "source": "onemap.mv (Maldives Geomatics Department) island centroid"
      },
      "geometry": {
        "type": "Point",
        "coordinates": [
          73.18437937464844,
          0.8377933915253013
        ]
      }
    },
    {
      "type": "Feature",
      "properties": {
        "join_key": "N.Miladhoo",
        "atoll": "N",
        "island": "Miladhoo",
        "name": "Miladhoo",
        "fallback_coordinates": false,
        "source": "onemap.mv (Maldives Geomatics Department) island centroid"
      },
      "geometry": {
        "type": "Point",
        "coordinates": [
          73.36259053299433,
          5.7904670841453125
        ]
      }
    }
  ]
}